{
  "stops": [
    {
      "stop": {
        "name": "Park Street",
        "line": "Red / Green",
        "lat": 42.3564,
        "lon": -71.0624,
        "radius_m": 800,
        "walk_minutes": 10
      },
      "counts": {
        "health": 24,
        "library": 18,
        "education": 4,
        "finance": 45,
        "park": 27,
        "food": 290,
        "grocery": 28,
        "fitness": 9,
        "other": 1
      },
      "total": 446,
      "amenities": [
        {
          "name": "Floating Hospital for Children",
          "type": "hospital",
          "category": "health",
          "lat": 42.3498066,
          "lon": -71.0639959
        },
        {
          "name": "New England School of Law Library",
          "type": "library",
          "category": "library",
          "lat": 42.3508011,
          "lon": -71.0665318
        },
        {
          "name": "Massachusetts State Transportation Library",
          "type": "library",
          "category": "library",
          "lat": 42.3517086,
          "lon": -71.0674336
        },
        {
          "name": "Mildred F. Sawyer Library",
          "type": "library",
          "category": "library",
          "lat": 42.3589785,
          "lon": -71.061772
        },
        {
          "name": "Emerson College Library",
          "type": "library",
          "category": "library",
          "lat": 42.3522439,
          "lon": -71.0655492
        },
        {
          "name": "Massachusetts Department of Public Health Central Library",
          "type": "library",
          "category": "library",
          "lat": 42.3578104,
          "lon": -71.0577759
        },
        {
          "name": "Urban College of Boston Learning Resource Center",
          "type": "library",
          "category": "library",
          "lat": 42.3520191,
          "lon": -71.0629688
        },
        {
          "name": "Congregational Library and Archives",
          "type": "library",
          "category": "library",
          "lat": 42.3578627,
          "lon": -71.0624482
        },
        {
          "name": "The Bostonian Society Library and Special Collections",
          "type": "library",
          "category": "library",
          "lat": 42.3586922,
          "lon": -71.0575878
        },
        {
          "name": "EPA Region 1 Library",
          "type": "library",
          "category": "library",
          "lat": 42.3569831,
          "lon": -71.0568523
        },
        {
          "name": "Massachusetts Environmental Library",
          "type": "library",
          "category": "library",
          "lat": 42.35559,
          "lon": -71.06053
        },
        {
          "name": "Social Law Library",
          "type": "library",
          "category": "library",
          "lat": 42.358874,
          "lon": -71.0611127
        },
        {
          "name": "Tufts University Hirsh Health Sciences Library",
          "type": "library",
          "category": "library",
          "lat": 42.3500662,
          "lon": -71.0622921
        },
        {
          "name": "State Library Of Massachusetts",
          "type": "library",
          "category": "library",
          "lat": 42.3592441,
          "lon": -71.0638705
        },
        {
          "name": "Moakley Law Library",
          "type": "library",
          "category": "library",
          "lat": 42.3568568,
          "lon": -71.0609706
        },
        {
          "name": "Park Street School",
          "type": "school",
          "category": "education",
          "lat": 42.3563955,
          "lon": -71.0717155
        },
        {
          "name": "TD Bank",
          "type": "bank",
          "category": "finance",
          "lat": 42.3609833,
          "lon": -71.067734
        },
        {
          "name": "Boston National Historical Park",
          "type": "park",
          "category": "park",
          "lat": 42.3599622,
          "lon": -71.0566666
        },
        {
          "name": "Massachusetts State House Post Office",
          "type": "post_office",
          "category": "finance",
          "lat": 42.3590086,
          "lon": -71.0641393
        },
        {
          "name": "Office of the Attorney General of Massachusetts Law Library",
          "type": "library",
          "category": "library",
          "lat": 42.3593032,
          "lon": -71.0624351
        },
        {
          "name": "Children's Trust Fund Resource Library",
          "type": "library",
          "category": "library",
          "lat": 42.3566,
          "lon": -71.059
        },
        {
          "name": "Subway",
          "type": "fast_food",
          "category": "food",
          "lat": 42.3610226,
          "lon": -71.0638361
        },
        {
          "name": "Bank of America",
          "type": "bank",
          "category": "finance",
          "lat": 42.3553408,
          "lon": -71.0562439
        },
        {
          "name": "Vintage Lounge",
          "type": "restaurant",
          "category": "food",
          "lat": 42.3577005,
          "lon": -71.0530222
        },
        {
          "name": "The Bell in Hand",
          "type": "restaurant",
          "category": "food",
          "lat": 42.3614571,
          "lon": -71.0570406
        },
        {
          "name": "Union Oyster House",
          "type": "restaurant",
          "category": "food",
          "lat": 42.3612749,
          "lon": -71.0569532
        },
        {
          "name": "Antonio's Cucina Italiana",
          "type": "restaurant",
          "category": "food",
          "lat": 42.3609909,
          "lon": -71.0682055
        },
        {
          "name": "Felcaros Pizzeria",
          "type": "fast_food",
          "category": "food",
          "lat": 42.3609949,
          "lon": -71.0680579
        },
        {
          "name": "Ma Maison",
          "type": "restaurant",
          "category": "food",
          "lat": 42.3609889,
          "lon": -71.0679602
        },
        {
          "name": "Flour Bakery + Cafe",
          "type": "bakery",
          "category": "grocery",
          "lat": 42.3613489,
          "lon": -71.0666707
        },
        {
          "name": "Thinking Cup",
          "type": "cafe",
          "category": "food",
          "lat": 42.3536887,
          "lon": -71.0638884
        },
        {
          "name": "Nix's Mate",
          "type": "restaurant",
          "category": "food",
          "lat": 42.3573743,
          "lon": -71.052889
        },
        {
          "name": "Starbucks",
          "type": "cafe",
          "category": "food",
          "lat": 42.3563867,
          "lon": -71.0693504
        },
        {
          "name": "7-Eleven",
          "type": "convenience",
          "category": "grocery",
          "lat": 42.3512134,
          "lon": -71.0664259
        },
        {
          "name": "Rock Bottom",
          "type": "restaurant",
          "category": "food",
          "lat": 42.3512527,
          "lon": -71.0654513
        },
        {
          "name": "Montien",
          "type": "restaurant",
          "category": "food",
          "lat": 42.3512106,
          "lon": -71.0643655
        },
        {
          "name": "Al's South Street Cafe",
          "type": "fast_food",
          "category": "food",
          "lat": 42.352008,
          "lon": -71.0573119
        },
        {
          "name": "Dunkin'",
          "type": "fast_food",
          "category": "food",
          "lat": 42.3512165,
          "lon": -71.0564197
        },
        {
          "name": "Boston Kitchen Pizza",
          "type": "restaurant",
          "category": "food",
          "lat": 42.3510675,
          "lon": -71.0631238
        },
        {
          "name": "Citibank",
          "type": "bank",
          "category": "finance",
          "lat": 42.3501506,
          "lon": -71.0629634
        },
        {
          "name": "Genki Ya",
          "type": "restaurant",
          "category": "food",
          "lat": 42.35123,
          "lon": -71.0646747
        },
        {
          "name": "Clover Food Lab",
          "type": "fast_food",
          "category": "food",
          "lat": 42.357701,
          "lon": -71.0591519
        },
        {
          "name": "Blu",
          "type": "restaurant",
          "category": "food",
          "lat": 42.3531469,
          "lon": -71.0630373
        },
        {
          "name": "Chipotle",
          "type": "fast_food",
          "category": "food",
          "lat": 42.3575099,
          "lon": -71.0584354
        },
        {
          "name": "Elephant & Castle",
          "type": "restaurant",
          "category": "food",
          "lat": 42.3562793,
          "lon": -71.0574902
        },
        {
          "name": "The Oceanaire Seafood Room",
          "type": "restaurant",
          "category": "food",
          "lat": 42.3590304,
          "lon": -71.0591935
        },
        {
          "name": "Troquet",
          "type": "restaurant",
          "category": "food",
          "lat": 42.3523987,
          "lon": -71.0668621
        },
        {
          "name": "Harvard Gardens",
          "type": "restaurant",
          "category": "food",
          "lat": 42.3609663,
          "lon": -71.0689181
        },
        {
          "name": "Anna's Taqueria",
          "type": "fast_food",
          "category": "food",
          "lat": 42.360994,
          "lon": -71.0671559
        },
        {
          "name": "Fin's Sushi & Grill",
          "type": "restaurant",
          "category": "food",
          "lat": 42.361003,
          "lon": -71.0668207
        },
        {
          "name": "Starbucks",
          "type": "cafe",
          "category": "food",
          "lat": 42.361007,
          "lon": -71.0665202
        },
        {
          "name": "Whole Foods Market",
          "type": "supermarket",
          "category": "grocery",
          "lat": 42.3620025,
          "lon": -71.0653418
        },
        {
          "name": "Blank Street Coffee",
          "type": "cafe",
          "category": "food",
          "lat": 42.3609929,
          "lon": -71.0681277
        },
        {
          "name": "Domino's",
          "type": "fast_food",
          "category": "food",
          "lat": 42.362842,
          "lon": -71.0641231
        },
        {
          "name": "Chilacates",
          "type": "fast_food",
          "category": "food",
          "lat": 42.3629292,
          "lon": -71.0640963
        },
        {
          "name": "Tip Tap Room",
          "type": "restaurant",
          "category": "food",
          "lat": 42.3610246,
          "lon": -71.0639676
        },
        {
          "name": "7-Eleven",
          "type": "convenience",
          "category": "grocery",
          "lat": 42.3610266,
          "lon": -71.0636082
        },
        {
          "name": "Dunkin'",
          "type": "fast_food",
          "category": "food",
          "lat": 42.3610246,
          "lon": -71.0630851
        },
        {
          "name": "Shah's",
          "type": "fast_food",
          "category": "food",
          "lat": 42.3610186,
          "lon": -71.0632702
        },
        {
          "name": "Rite Aid",
          "type": "pharmacy",
          "category": "health",
          "lat": 42.360981,
          "lon": -71.0626238
        },
        {
          "name": "Cafe Podima",
          "type": "fast_food",
          "category": "food",
          "lat": 42.3610068,
          "lon": -71.0649359
        },
        {
          "name": "Bank of America",
          "type": "bank",
          "category": "finance",
          "lat": 42.3614071,
          "lon": -71.0653976
        },
        {
          "name": "Gong Cha",
          "type": "cafe",
          "category": "food",
          "lat": 42.3613536,
          "lon": -71.0662421
        },
        {
          "name": "Little Lamb",
          "type": "restaurant",
          "category": "food",
          "lat": 42.3609592,
          "lon": -71.0693025
        },
        {
          "name": "Finagle a Bagel",
          "type": "fast_food",
          "category": "food",
          "lat": 42.3613001,
          "lon": -71.068353
        },
        {
          "name": "The UPS Store",
          "type": "post_office",
          "category": "finance",
          "lat": 42.3602088,
          "lon": -71.0706346
        },
        {
          "name": "Beantown Pub",
          "type": "restaurant",
          "category": "food",
          "lat": 42.3572766,
          "lon": -71.0610233
        },
        {
          "name": "City Convenience",
          "type": "convenience",
          "category": "grocery",
          "lat": 42.3580872,
          "lon": -71.0625736
        },
        {
          "name": "21st Amendment",
          "type": "restaurant",
          "category": "food",
          "lat": 42.3584018,
          "lon": -71.06265
        },
        {
          "name": "Fill-A-Buster",
          "type": "restaurant",
          "category": "food",
          "lat": 42.3584762,
          "lon": -71.0626995
        },
        {
          "name": "Capitol Coffee House",
          "type": "restaurant",
          "category": "food",
          "lat": 42.3589395,
          "lon": -71.0627908
        },
        {
          "name": "Zo Greek",
          "type": "restaurant",
          "category": "food",
          "lat": 42.3592336,
          "lon": -71.0554274
        },
        {
          "name": "Max's Deli Cafe",
          "type": "restaurant",
          "category": "food",
          "lat": 42.3576995,
          "lon": -71.0541968
        },
        {
          "name": "Subway",
          "type": "fast_food",
          "category": "food",
          "lat": 42.3578311,
          "lon": -71.0540352
        },
        {
          "name": "The Black Rose",
          "type": "restaurant",
          "category": "food",
          "lat": 42.3594126,
          "lon": -71.0536973
        },
        {
          "name": "Dunkin'",
          "type": "fast_food",
          "category": "food",
          "lat": 42.3564483,
          "lon": -71.0530893
        },
        {
          "name": "Dunkin'",
          "type": "fast_food",
          "category": "food",
          "lat": 42.356713,
          "lon": -71.0565572
        },
        {
          "name": "360 Cafe",
          "type": "cafe",
          "category": "food",
          "lat": 42.3562295,
          "lon": -71.0619738
        },
        {
          "name": "Starbucks",
          "type": "cafe",
          "category": "food",
          "lat": 42.353244,
          "lon": -71.0576648
        },
        {
          "name": "Caffè Nero",
          "type": "cafe",
          "category": "food",
          "lat": 42.3534422,
          "lon": -71.0623116
        },
        {
          "name": "Boston Common Coffee Company",
          "type": "cafe",
          "category": "food",
          "lat": 42.3542405,
          "lon": -71.0619504
        },
        {
          "name": "Starbucks",
          "type": "cafe",
          "category": "food",
          "lat": 42.3555941,
          "lon": -71.0611045
        },
        {
          "name": "Saus",
          "type": "restaurant",
          "category": "food",
          "lat": 42.3611464,
          "lon": -71.0567876
        },
        {
          "name": "Susan's Deli of Course",
          "type": "fast_food",
          "category": "food",
          "lat": 42.35184,
          "lon": -71.0564057
        },
        {
          "name": "Clarke's",
          "type": "restaurant",
          "category": "food",
          "lat": 42.3594624,
          "lon": -71.0554695
        },
        {
          "name": "Oliver Street Cafe",
          "type": "cafe",
          "category": "food",
          "lat": 42.3569029,
          "lon": -71.0541391
        },
        {
          "name": "Pita",
          "type": "restaurant",
          "category": "food",
          "lat": 42.3529082,
          "lon": -71.0571574
        },
        {
          "name": "Anthem",
          "type": "restaurant",
          "category": "food",
          "lat": 42.3596962,
          "lon": -71.0555877
        },
        {
          "name": "Santander",
          "type": "bank",
          "category": "finance",
          "lat": 42.351373,
          "lon": -71.061404
        },
        {
          "name": "Avana Sushi",
          "type": "restaurant",
          "category": "food",
          "lat": 42.3515414,
          "lon": -71.060963
        },
        {
          "name": "Jia Ho Supermarket",
          "type": "supermarket",
          "category": "grocery",
          "lat": 42.3512504,
          "lon": -71.0627836
        },
        {
          "name": "Figaro's",
          "type": "fast_food",
          "category": "food",
          "lat": 42.3507421,
          "lon": -71.0582114
        },
        {
          "name": "Stillwater",
          "type": "restaurant",
          "category": "food",
          "lat": 42.3523573,
          "lon": -71.0590353
        },
        {
          "name": "Gracenote Coffee Roasters",
          "type": "cafe",
          "category": "food",
          "lat": 42.3515263,
          "lon": -71.0581273
        },
        {
          "name": "Pho Pasteur",
          "type": "restaurant",
          "category": "food",
          "lat": 42.3514781,
          "lon": -71.0626786
        },
        {
          "name": "McDonald's",
          "type": "fast_food",
          "category": "food",
          "lat": 42.35524,
          "lon": -71.063037
        },
        {
          "name": "Bank of America",
          "type": "bank",
          "category": "finance",
          "lat": 42.3540798,
          "lon": -71.0588133
        },
        {
          "name": "CVS Pharmacy",
          "type": "pharmacy",
          "category": "health",
          "lat": 42.3525084,
          "lon": -71.0628131
        },
        {
          "name": "CVS Pharmacy",
          "type": "pharmacy",
          "category": "health",
          "lat": 42.3542527,
          "lon": -71.0593665
        },
        {
          "name": "WebsterBank",
          "type": "bank",
          "category": "finance",
          "lat": 42.3541155,
          "lon": -71.0584736
        },
        {
          "name": "Citizens Bank",
          "type": "bank",
          "category": "finance",
          "lat": 42.3546833,
          "lon": -71.059172
        },
        {
          "name": "Dunkin'",
          "type": "fast_food",
          "category": "food",
          "lat": 42.3518246,
          "lon": -71.0549596
        },
        {
          "name": "Dunkin'",
          "type": "fast_food",
          "category": "food",
          "lat": 42.3522864,
          "lon": -71.0624349
        },
        {
          "name": "Dunkin'",
          "type": "fast_food",
          "category": "food",
          "lat": 42.3534817,
          "lon": -71.0580307
        },
        {
          "name": "Dunkin'",
          "type": "fast_food",
          "category": "food",
          "lat": 42.3544906,
          "lon": -71.0595435
        },
        {
          "name": "Starbucks",
          "type": "cafe",
          "category": "food",
          "lat": 42.3521774,
          "lon": -71.0559949
        },
        {
          "name": "Starbucks",
          "type": "cafe",
          "category": "food",
          "lat": 42.3522389,
          "lon": -71.0644358
        },
        {
          "name": "Wendy's",
          "type": "fast_food",
          "category": "food",
          "lat": 42.3542245,
          "lon": -71.0590064
        },
        {
          "name": "7-Eleven",
          "type": "convenience",
          "category": "grocery",
          "lat": 42.3546125,
          "lon": -71.0590721
        },
        {
          "name": "Shabu Zen",
          "type": "restaurant",
          "category": "food",
          "lat": 42.3508693,
          "lon": -71.0605945
        },
        {
          "name": "Crave - Mad for Chicken",
          "type": "restaurant",
          "category": "food",
          "lat": 42.3502446,
          "lon": -71.060791
        },
        {
          "name": "JiangNan",
          "type": "restaurant",
          "category": "food",
          "lat": 42.3530092,
          "lon": -71.064208
        },
        {
          "name": "Boston News Cafe",
          "type": "cafe",
          "category": "food",
          "lat": 42.3567772,
          "lon": -71.053804
        },
        {
          "name": "Tatte",
          "type": "cafe",
          "category": "food",
          "lat": 42.357875,
          "lon": -71.0705123
        },
        {
          "name": "The Paramount",
          "type": "restaurant",
          "category": "food",
          "lat": 42.3572896,
          "lon": -71.0700736
        },
        {
          "name": "George Howell Coffee",
          "type": "cafe",
          "category": "food",
          "lat": 42.35477,
          "lon": -71.0614439
        },
        {
          "name": "Figs",
          "type": "fast_food",
          "category": "food",
          "lat": 42.3572305,
          "lon": -71.0701821
        },
        {
          "name": "Milk Street Cafe",
          "type": "cafe",
          "category": "food",
          "lat": 42.3568397,
          "lon": -71.0575833
        },
        {
          "name": "Blank Street Coffee",
          "type": "cafe",
          "category": "food",
          "lat": 42.3589008,
          "lon": -71.0705692
        },
        {
          "name": "Burger King",
          "type": "fast_food",
          "category": "food",
          "lat": 42.3563183,
          "lon": -71.0619123
        },
        {
          "name": "Ophthalmic Consultants of Boston",
          "type": "clinic",
          "category": "health",
          "lat": 42.3623973,
          "lon": -71.0643102
        },
        {
          "name": "Sweetgreen",
          "type": "fast_food",
          "category": "food",
          "lat": 42.3609942,
          "lon": -71.0683995
        },
        {
          "name": "Dunkin'",
          "type": "fast_food",
          "category": "food",
          "lat": 42.3609891,
          "lon": -71.0686153
        },
        {
          "name": "Panera Bread",
          "type": "fast_food",
          "category": "food",
          "lat": 42.351257,
          "lon": -71.0650021
        },
        {
          "name": "CVS Pharmacy",
          "type": "pharmacy",
          "category": "health",
          "lat": 42.3520902,
          "lon": -71.0554142
        },
        {
          "name": "McDonald's",
          "type": "fast_food",
          "category": "food",
          "lat": 42.3517316,
          "lon": -71.0554854
        },
        {
          "name": "CVS Pharmacy",
          "type": "pharmacy",
          "category": "health",
          "lat": 42.3570375,
          "lon": -71.058901
        },
        {
          "name": "Dunkin'",
          "type": "fast_food",
          "category": "food",
          "lat": 42.3581352,
          "lon": -71.0580662
        },
        {
          "name": "Dunkin'",
          "type": "fast_food",
          "category": "food",
          "lat": 42.3590215,
          "lon": -71.0595603
        },
        {
          "name": "New Moon Villa Chinese",
          "type": "restaurant",
          "category": "food",
          "lat": 42.3518669,
          "lon": -71.0599275
        },
        {
          "name": "Pepper Palace",
          "type": "supermarket",
          "category": "grocery",
          "lat": 42.359706,
          "lon": -71.0550683
        },
        {
          "name": "Toscano",
          "type": "restaurant",
          "category": "food",
          "lat": 42.3574284,
          "lon": -71.0699156
        },
        {
          "name": "Grass Roots Cafe",
          "type": "restaurant",
          "category": "food",
          "lat": 42.3547826,
          "lon": -71.059298
        },
        {
          "name": "The Chicken & Rice Guys - Downtown",
          "type": "restaurant",
          "category": "food",
          "lat": 42.353255,
          "lon": -71.0598437
        },
        {
          "name": "Wheelhouse",
          "type": "restaurant",
          "category": "food",
          "lat": 42.3541956,
          "lon": -71.0556986
        },
        {
          "name": "Flame Cafe",
          "type": "restaurant",
          "category": "food",
          "lat": 42.357101,
          "lon": -71.0544421
        },
        {
          "name": "Sam LaGrassa's",
          "type": "restaurant",
          "category": "food",
          "lat": 42.3567935,
          "lon": -71.0600308
        },
        {
          "name": "Starbucks",
          "type": "cafe",
          "category": "food",
          "lat": 42.3516552,
          "lon": -71.0669183
        },
        {
          "name": "Santander",
          "type": "bank",
          "category": "finance",
          "lat": 42.3563046,
          "lon": -71.0696755
        },
        {
          "name": "Gaga Seafood Restaurant",
          "type": "restaurant",
          "category": "food",
          "lat": 42.350687,
          "lon": -71.0608747
        },
        {
          "name": "The Halal Guys",
          "type": "fast_food",
          "category": "food",
          "lat": 42.3512904,
          "lon": -71.0657649
        },
        {
          "name": "Dunkin'",
          "type": "fast_food",
          "category": "food",
          "lat": 42.3512672,
          "lon": -71.0662282
        },
        {
          "name": "P.F. Chang's",
          "type": "restaurant",
          "category": "food",
          "lat": 42.3521152,
          "lon": -71.0672396
        },
        {
          "name": "Jaho Coffee Roaster & Wine Bar",
          "type": "cafe",
          "category": "food",
          "lat": 42.3518743,
          "lon": -71.0628615
        },
        {
          "name": "Joy Luck Hot Pot",
          "type": "restaurant",
          "category": "food",
          "lat": 42.3510404,
          "lon": -71.0628464
        },
        {
          "name": "Empire Garden Restaurant",
          "type": "restaurant",
          "category": "food",
          "lat": 42.351296,
          "lon": -71.0627648
        },
        {
          "name": "Boston News Cafe",
          "type": "restaurant",
          "category": "food",
          "lat": 42.3550826,
          "lon": -71.0582331
        },
        {
          "name": "Nan Xiang Express",
          "type": "restaurant",
          "category": "food",
          "lat": 42.3514881,
          "lon": -71.0606747
        },
        {
          "name": "Cafe 26",
          "type": "cafe",
          "category": "food",
          "lat": 42.3554274,
          "lon": -71.0622593
        },
        {
          "name": "Wagamama",
          "type": "restaurant",
          "category": "food",
          "lat": 42.3601655,
          "lon": -71.0541799
        },
        {
          "name": "Citizens Bank",
          "type": "bank",
          "category": "finance",
          "lat": 42.3533739,
          "lon": -71.0623583
        },
        {
          "name": "Legal Crossing",
          "type": "restaurant",
          "category": "food",
          "lat": 42.353697,
          "lon": -71.0621541
        },
        {
          "name": "Cathay Bank",
          "type": "bank",
          "category": "finance",
          "lat": 42.352713,
          "lon": -71.0626758
        },
        {
          "name": "Sip Wine Bar - Kitchen",
          "type": "restaurant",
          "category": "food",
          "lat": 42.3533122,
          "lon": -71.0626995
        },
        {
          "name": "Back Deck",
          "type": "restaurant",
          "category": "food",
          "lat": 42.3543481,
          "lon": -71.0618225
        },
        {
          "name": "Bruegger's Bagels",
          "type": "fast_food",
          "category": "food",
          "lat": 42.3575444,
          "lon": -71.0585756
        },
        {
          "name": "Women's Fitness of Boston",
          "type": "fitness_centre",
          "category": "fitness",
          "lat": 42.3578304,
          "lon": -71.0591407
        },
        {
          "name": "Sweetgreen",
          "type": "fast_food",
          "category": "food",
          "lat": 42.3576068,
          "lon": -71.0588177
        },
        {
          "name": "The Chicken & Rice Guys",
          "type": "restaurant",
          "category": "food",
          "lat": 42.3574582,
          "lon": -71.0581315
        },
        {
          "name": "7-Eleven",
          "type": "convenience",
          "category": "grocery",
          "lat": 42.3571918,
          "lon": -71.0583903
        },
        {
          "name": "Luke's Lobster",
          "type": "restaurant",
          "category": "food",
          "lat": 42.357403,
          "lon": -71.0581869
        },
        {
          "name": "Lou Lou",
          "type": "bakery",
          "category": "grocery",
          "lat": 42.357284,
          "lon": -71.0583041
        },
        {
          "name": "Dig",
          "type": "fast_food",
          "category": "food",
          "lat": 42.3575861,
          "lon": -71.058314
        },
        {
          "name": "Falafel King",
          "type": "restaurant",
          "category": "food",
          "lat": 42.3578242,
          "lon": -71.0578623
        },
        {
          "name": "Boston Shawarma Restaurant",
          "type": "restaurant",
          "category": "food",
          "lat": 42.3583914,
          "lon": -71.0577319
        },
        {
          "name": "The Well",
          "type": "cafe",
          "category": "food",
          "lat": 42.3585462,
          "lon": -71.0577196
        },
        {
          "name": "Tatte Bakery & Cafe",
          "type": "cafe",
          "category": "food",
          "lat": 42.3583415,
          "lon": -71.0581787
        },
        {
          "name": "Spyce",
          "type": "restaurant",
          "category": "food",
          "lat": 42.3580556,
          "lon": -71.0580677
        },
        {
          "name": "Potbelly",
          "type": "fast_food",
          "category": "food",
          "lat": 42.3578488,
          "lon": -71.0581273
        },
        {
          "name": "Casa Razdora",
          "type": "fast_food",
          "category": "food",
          "lat": 42.3580814,
          "lon": -71.0546052
        },
        {
          "name": "KoHi",
          "type": "cafe",
          "category": "food",
          "lat": 42.3530249,
          "lon": -71.0571274
        },
        {
          "name": "Boston Chowda",
          "type": "restaurant",
          "category": "food",
          "lat": 42.3601194,
          "lon": -71.0552111
        },
        {
          "name": "Caffè Nero",
          "type": "cafe",
          "category": "food",
          "lat": 42.3551174,
          "lon": -71.0597637
        },
        {
          "name": "Frog Pond Café",
          "type": "cafe",
          "category": "food",
          "lat": 42.3559015,
          "lon": -71.0656488
        },
        {
          "name": "Intelligentsia",
          "type": "cafe",
          "category": "food",
          "lat": 42.3560643,
          "lon": -71.0545466
        },
        {
          "name": "Hot Pot Buffet",
          "type": "restaurant",
          "category": "food",
          "lat": 42.3513135,
          "lon": -71.0599233
        },
        {
          "name": "My Thai Vegan Cafe",
          "type": "fast_food",
          "category": "food",
          "lat": 42.3514617,
          "lon": -71.0625778
        },
        {
          "name": "Dumpling Cafe",
          "type": "restaurant",
          "category": "food",
          "lat": 42.3512206,
          "lon": -71.0630527
        },
        {
          "name": "Bánh Mì Huong Que",
          "type": "restaurant",
          "category": "food",
          "lat": 42.3511734,
          "lon": -71.0628128
        },
        {
          "name": "Democracy Brewing",
          "type": "restaurant",
          "category": "food",
          "lat": 42.3551144,
          "lon": -71.0620624
        },
        {
          "name": "clinic",
          "type": "clinic",
          "category": "health",
          "lat": 42.3539429,
          "lon": -71.0581471
        },
        {
          "name": "Chipotle",
          "type": "fast_food",
          "category": "food",
          "lat": 42.3534231,
          "lon": -71.0580507
        },
        {
          "name": "Tatte",
          "type": "bakery",
          "category": "grocery",
          "lat": 42.3532095,
          "lon": -71.0572844
        },
        {
          "name": "Starbucks",
          "type": "cafe",
          "category": "food",
          "lat": 42.3546543,
          "lon": -71.0548229
        },
        {
          "name": "Bruegger's Bagels",
          "type": "fast_food",
          "category": "food",
          "lat": 42.3546203,
          "lon": -71.054837
        },
        {
          "name": "Dunkin'",
          "type": "fast_food",
          "category": "food",
          "lat": 42.3546641,
          "lon": -71.0544769
        },
        {
          "name": "Just Salad",
          "type": "fast_food",
          "category": "food",
          "lat": 42.3558214,
          "lon": -71.0549667
        },
        {
          "name": "Chase",
          "type": "bank",
          "category": "finance",
          "lat": 42.355569,
          "lon": -71.0605844
        },
        {
          "name": "Artisan bistro",
          "type": "restaurant",
          "category": "food",
          "lat": 42.3531653,
          "lon": -71.063475
        },
        {
          "name": "The Paramount",
          "type": "restaurant",
          "category": "food",
          "lat": 42.3573139,
          "lon": -71.0702328
        },
        {
          "name": "Bertucci's",
          "type": "restaurant",
          "category": "food",
          "lat": 42.3593838,
          "lon": -71.0557717
        },
        {
          "name": "China Pearl Restaurant",
          "type": "restaurant",
          "category": "food",
          "lat": 42.3510259,
          "lon": -71.0607541
        },
        {
          "name": "Citizens Bank",
          "type": "bank",
          "category": "finance",
          "lat": 42.354143,
          "lon": -71.0543724
        },
        {
          "name": "noon",
          "type": "restaurant",
          "category": "food",
          "lat": 42.3537849,
          "lon": -71.058393
        },
        {
          "name": "Sweetgreen",
          "type": "fast_food",
          "category": "food",
          "lat": 42.3539018,
          "lon": -71.05857
        },
        {
          "name": "Grainmaker",
          "type": "restaurant",
          "category": "food",
          "lat": 42.3538505,
          "lon": -71.0584867
        },
        {
          "name": "TD Bank",
          "type": "bank",
          "category": "finance",
          "lat": 42.3605525,
          "lon": -71.0566456
        },
        {
          "name": "BNC Market",
          "type": "convenience",
          "category": "grocery",
          "lat": 42.3584689,
          "lon": -71.0577368
        },
        {
          "name": "Sons of Boston",
          "type": "restaurant",
          "category": "food",
          "lat": 42.3609194,
          "lon": -71.056805
        },
        {
          "name": "Brookline Bank",
          "type": "bank",
          "category": "finance",
          "lat": 42.3587184,
          "lon": -71.0568699
        },
        {
          "name": "Blackstone Grill",
          "type": "restaurant",
          "category": "food",
          "lat": 42.360863,
          "lon": -71.0568001
        },
        {
          "name": "Tradesman Coffee Shop",
          "type": "cafe",
          "category": "food",
          "lat": 42.3552866,
          "lon": -71.0555793
        },
        {
          "name": "Happy Lamb Hot Pot",
          "type": "restaurant",
          "category": "food",
          "lat": 42.3511477,
          "lon": -71.0630482
        },
        {
          "name": "Ogawa Coffee",
          "type": "cafe",
          "category": "food",
          "lat": 42.3568422,
          "lon": -71.0580786
        },
        {
          "name": "Gene’s Chinese Flatbread Café",
          "type": "restaurant",
          "category": "food",
          "lat": 42.3534357,
          "lon": -71.059593
        },
        {
          "name": "Boston News Cafe",
          "type": "cafe",
          "category": "food",
          "lat": 42.3595155,
          "lon": -71.057655
        },
        {
          "name": "BLR",
          "type": "restaurant",
          "category": "food",
          "lat": 42.3507378,
          "lon": -71.0601862
        },
        {
          "name": "KS Variety",
          "type": "convenience",
          "category": "grocery",
          "lat": 42.3581293,
          "lon": -71.0618052
        },
        {
          "name": "High Spot Deli",
          "type": "restaurant",
          "category": "food",
          "lat": 42.3581111,
          "lon": -71.0618711
        },
        {
          "name": "Citizens Bank",
          "type": "bank",
          "category": "finance",
          "lat": 42.3578978,
          "lon": -71.0607519
        },
        {
          "name": "KinderCare",
          "type": "kindergarten",
          "category": "education",
          "lat": 42.3576805,
          "lon": -71.059678
        },
        {
          "name": "Dunkin'",
          "type": "fast_food",
          "category": "food",
          "lat": 42.3594904,
          "lon": -71.0590046
        },
        {
          "name": "Caffè Nero",
          "type": "cafe",
          "category": "food",
          "lat": 42.3593235,
          "lon": -71.0600389
        },
        {
          "name": "CVS Pharmacy",
          "type": "pharmacy",
          "category": "health",
          "lat": 42.3600513,
          "lon": -71.0603435
        },
        {
          "name": "Bank of America",
          "type": "bank",
          "category": "finance",
          "lat": 42.3591272,
          "lon": -71.0595157
        },
        {
          "name": "Clover Food Lab",
          "type": "restaurant",
          "category": "food",
          "lat": 42.3538533,
          "lon": -71.0560166
        },
        {
          "name": "Penang Malaysian Cuisine",
          "type": "restaurant",
          "category": "food",
          "lat": 42.3513582,
          "lon": -71.0629983
        },
        {
          "name": "Dunkin'",
          "type": "fast_food",
          "category": "food",
          "lat": 42.3577751,
          "lon": -71.0628248
        },
        {
          "name": "Grotto Restaurant",
          "type": "restaurant",
          "category": "food",
          "lat": 42.3599168,
          "lon": -71.0630117
        },
        {
          "name": "Unites States Post Office John Fitzgerald Kennedy Station",
          "type": "post_office",
          "category": "finance",
          "lat": 42.3621161,
          "lon": -71.0620121
        },
        {
          "name": "31 Milk Street Lobby Post Office",
          "type": "post_office",
          "category": "finance",
          "lat": 42.3566513,
          "lon": -71.0579617
        },
        {
          "name": "Beacon Hill Market",
          "type": "convenience",
          "category": "grocery",
          "lat": 42.3592218,
          "lon": -71.0678037
        },
        {
          "name": "Shake Shack",
          "type": "fast_food",
          "category": "food",
          "lat": 42.3568548,
          "lon": -71.0587079
        },
        {
          "name": "McDonald's",
          "type": "fast_food",
          "category": "food",
          "lat": 42.3569712,
          "lon": -71.0589526
        },
        {
          "name": "Bank of America",
          "type": "bank",
          "category": "finance",
          "lat": 42.3570836,
          "lon": -71.0588197
        },
        {
          "name": "English Language Center - ELC Boston",
          "type": "language_school",
          "category": "other",
          "lat": 42.3583823,
          "lon": -71.0616243
        },
        {
          "name": "Bobbi Brown and Steven Plofker Gym",
          "type": "fitness_centre",
          "category": "fitness",
          "lat": 42.3523001,
          "lon": -71.0663493
        },
        {
          "name": "Emerson College Fitness Center",
          "type": "fitness_centre",
          "category": "fitness",
          "lat": 42.3545519,
          "lon": -71.0587564
        },
        {
          "name": "Upper Crust Pizzeria",
          "type": "restaurant",
          "category": "food",
          "lat": 42.3566667,
          "lon": -71.069916
        },
        {
          "name": "Boston Public Library Chinatown",
          "type": "library",
          "category": "library",
          "lat": 42.3521678,
          "lon": -71.0630441
        },
        {
          "name": "Bank of America",
          "type": "bank",
          "category": "finance",
          "lat": 42.3521916,
          "lon": -71.0624754
        },
        {
          "name": "Lafayette Post Office",
          "type": "post_office",
          "category": "finance",
          "lat": 42.353245,
          "lon": -71.0611096
        },
        {
          "name": "Five Guys",
          "type": "fast_food",
          "category": "food",
          "lat": 42.3543188,
          "lon": -71.0587546
        },
        {
          "name": "Ruth's Chris Steak House",
          "type": "restaurant",
          "category": "food",
          "lat": 42.3580909,
          "lon": -71.0595739
        },
        {
          "name": "Mooo....",
          "type": "restaurant",
          "category": "food",
          "lat": 42.3582899,
          "lon": -71.0619821
        },
        {
          "name": "Marliave",
          "type": "restaurant",
          "category": "food",
          "lat": 42.3569073,
          "lon": -71.0602418
        },
        {
          "name": "Santander",
          "type": "bank",
          "category": "finance",
          "lat": 42.3552767,
          "lon": -71.0565837
        },
        {
          "name": "TD Bank",
          "type": "bank",
          "category": "finance",
          "lat": 42.355567,
          "lon": -71.0553658
        },
        {
          "name": "TD Bank",
          "type": "bank",
          "category": "finance",
          "lat": 42.3556533,
          "lon": -71.0612606
        },
        {
          "name": "Starbucks",
          "type": "cafe",
          "category": "food",
          "lat": 42.3593626,
          "lon": -71.0592092
        },
        {
          "name": "Dunkin'",
          "type": "fast_food",
          "category": "food",
          "lat": 42.3591135,
          "lon": -71.0547647
        },
        {
          "name": "Equinox",
          "type": "fitness_centre",
          "category": "fitness",
          "lat": 42.355973,
          "lon": -71.0544702
        },
        {
          "name": "Planet Fitness",
          "type": "fitness_centre",
          "category": "fitness",
          "lat": 42.3559605,
          "lon": -71.0613608
        },
        {
          "name": "Sip Café",
          "type": "cafe",
          "category": "food",
          "lat": 42.3559069,
          "lon": -71.0555332
        },
        {
          "name": "Beacon Capitol Market",
          "type": "convenience",
          "category": "grocery",
          "lat": 42.3592653,
          "lon": -71.0657434
        },
        {
          "name": "Rebel's Guild",
          "type": "restaurant",
          "category": "food",
          "lat": 42.3506838,
          "lon": -71.0671573
        },
        {
          "name": "Dunkin'",
          "type": "fast_food",
          "category": "food",
          "lat": 42.355161,
          "lon": -71.0631006
        },
        {
          "name": "US Post Office Charles Street Station",
          "type": "post_office",
          "category": "finance",
          "lat": 42.3596496,
          "lon": -71.0709199
        },
        {
          "name": "Jimmy John's",
          "type": "fast_food",
          "category": "food",
          "lat": 42.3515565,
          "lon": -71.0668629
        },
        {
          "name": "Shaking Crab",
          "type": "restaurant",
          "category": "food",
          "lat": 42.3523219,
          "lon": -71.0662009
        },
        {
          "name": "Pick N'Roll Sushi",
          "type": "restaurant",
          "category": "food",
          "lat": 42.3523196,
          "lon": -71.06611
        },
        {
          "name": "El Jefe's Taqueria",
          "type": "restaurant",
          "category": "food",
          "lat": 42.3522857,
          "lon": -71.0649587
        },
        {
          "name": "Chow City Dim Sum",
          "type": "restaurant",
          "category": "food",
          "lat": 42.3526552,
          "lon": -71.0603003
        },
        {
          "name": "75 Chestnut",
          "type": "restaurant",
          "category": "food",
          "lat": 42.356936,
          "lon": -71.0709795
        },
        {
          "name": "Cobblestones: a Beacon Hill Eatery",
          "type": "cafe",
          "category": "food",
          "lat": 42.3568983,
          "lon": -71.069971
        },
        {
          "name": "Nino's Pizza & Subs",
          "type": "restaurant",
          "category": "food",
          "lat": 42.3583849,
          "lon": -71.0704297
        },
        {
          "name": "Yosemite Eyewear",
          "type": "optometrist",
          "category": "health",
          "lat": 42.3592265,
          "lon": -71.0705508
        },
        {
          "name": "Blackbird Doughnuts",
          "type": "cafe",
          "category": "food",
          "lat": 42.3613952,
          "lon": -71.0656779
        },
        {
          "name": "Bright Horizons",
          "type": "kindergarten",
          "category": "education",
          "lat": 42.3608382,
          "lon": -71.061723
        },
        {
          "name": "Erich Lindemann Mental Health Center",
          "type": "clinic",
          "category": "health",
          "lat": 42.3633475,
          "lon": -71.0630517
        },
        {
          "name": "Sushi at 24",
          "type": "restaurant",
          "category": "food",
          "lat": 42.358799,
          "lon": -71.0596505
        },
        {
          "name": "Charles Street Family Chiropractic",
          "type": "alternative",
          "category": "health",
          "lat": 42.3587217,
          "lon": -71.0708614
        },
        {
          "name": "A Sanctuary Cafe",
          "type": "cafe",
          "category": "food",
          "lat": 42.3581779,
          "lon": -71.0706798
        },
        {
          "name": "ZURiTO",
          "type": "restaurant",
          "category": "food",
          "lat": 42.3567657,
          "lon": -71.0699689
        },
        {
          "name": "DeLuca's Market",
          "type": "supermarket",
          "category": "grocery",
          "lat": 42.3565533,
          "lon": -71.0694213
        },
        {
          "name": "Boston Sports Club",
          "type": "fitness_centre",
          "category": "fitness",
          "lat": 42.3615355,
          "lon": -71.0610863
        },
        {
          "name": "Render Coffee",
          "type": "cafe",
          "category": "food",
          "lat": 42.3571321,
          "lon": -71.0574738
        },
        {
          "name": "Eastern Bank",
          "type": "bank",
          "category": "finance",
          "lat": 42.3564195,
          "lon": -71.0692016
        },
        {
          "name": "Global Pack Ship",
          "type": "post_office",
          "category": "finance",
          "lat": 42.354389,
          "lon": -71.0635236
        },
        {
          "name": "Sal's Pizza",
          "type": "restaurant",
          "category": "food",
          "lat": 42.3549171,
          "lon": -71.0632717
        },
        {
          "name": "Mooyah",
          "type": "fast_food",
          "category": "food",
          "lat": 42.3556963,
          "lon": -71.0625498
        },
        {
          "name": "Ostra",
          "type": "restaurant",
          "category": "food",
          "lat": 42.3510548,
          "lon": -71.0671995
        },
        {
          "name": "La Colombe Coffee Roasters",
          "type": "cafe",
          "category": "food",
          "lat": 42.3504764,
          "lon": -71.057103
        },
        {
          "name": "Harvard Musical Association",
          "type": "library",
          "category": "library",
          "lat": 42.3572176,
          "lon": -71.0694294
        },
        {
          "name": "Florina Pizzeria & Paninoteca",
          "type": "restaurant",
          "category": "food",
          "lat": 42.359541,
          "lon": -71.0634491
        },
        {
          "name": "HarborOne Bank",
          "type": "bank",
          "category": "finance",
          "lat": 42.3578564,
          "lon": -71.0533801
        },
        {
          "name": "Fuchun Ju",
          "type": "restaurant",
          "category": "food",
          "lat": 42.3512803,
          "lon": -71.0606698
        },
        {
          "name": "Waku Waku",
          "type": "restaurant",
          "category": "food",
          "lat": 42.3512289,
          "lon": -71.0604295
        },
        {
          "name": "Bubor Cha Cha",
          "type": "restaurant",
          "category": "food",
          "lat": 42.3513308,
          "lon": -71.0609509
        },
        {
          "name": "Ho Yuen Bakery 家餅園桃",
          "type": "bakery",
          "category": "grocery",
          "lat": 42.3514769,
          "lon": -71.0606021
        },
        {
          "name": "Au Bon Pain",
          "type": "fast_food",
          "category": "food",
          "lat": 42.3517318,
          "lon": -71.0552224
        },
        {
          "name": "Melting Sun",
          "type": "cafe",
          "category": "food",
          "lat": 42.3516566,
          "lon": -71.0551892
        },
        {
          "name": "Dunkin'",
          "type": "fast_food",
          "category": "food",
          "lat": 42.3509519,
          "lon": -71.0622372
        },
        {
          "name": "Dunkin'",
          "type": "fast_food",
          "category": "food",
          "lat": 42.360663,
          "lon": -71.0563348
        },
        {
          "name": "Dunkin'",
          "type": "fast_food",
          "category": "food",
          "lat": 42.3568053,
          "lon": -71.0587673
        },
        {
          "name": "Dunkin'",
          "type": "fast_food",
          "category": "food",
          "lat": 42.3499038,
          "lon": -71.0631836
        },
        {
          "name": "Koala Health",
          "type": "pharmacy",
          "category": "health",
          "lat": 42.3503024,
          "lon": -71.0576359
        },
        {
          "name": "Jumbo Seafood",
          "type": "restaurant",
          "category": "food",
          "lat": 42.3508377,
          "lon": -71.0601272
        },
        {
          "name": "Tiger Sugar",
          "type": "cafe",
          "category": "food",
          "lat": 42.350879,
          "lon": -71.0605761
        },
        {
          "name": "Roche Bros.",
          "type": "supermarket",
          "category": "grocery",
          "lat": 42.3554512,
          "lon": -71.0600046
        },
        {
          "name": "WebsterBank",
          "type": "bank",
          "category": "finance",
          "lat": 42.3511329,
          "lon": -71.0635483
        },
        {
          "name": "Growl Growl",
          "type": "restaurant",
          "category": "food",
          "lat": 42.3560034,
          "lon": -71.0618838
        },
        {
          "name": "Estella",
          "type": "restaurant",
          "category": "food",
          "lat": 42.3549453,
          "lon": -71.0617628
        },
        {
          "name": "Cafe Darq",
          "type": "cafe",
          "category": "food",
          "lat": 42.351571,
          "lon": -71.0615754
        },
        {
          "name": "Tbaar",
          "type": "cafe",
          "category": "food",
          "lat": 42.3508384,
          "lon": -71.061807
        },
        {
          "name": "OneZo Tapioca",
          "type": "cafe",
          "category": "food",
          "lat": 42.3509096,
          "lon": -71.0615621
        },
        {
          "name": "Double Chin Modern Asian Restaurant",
          "type": "restaurant",
          "category": "food",
          "lat": 42.350749,
          "lon": -71.0613238
        },
        {
          "name": "Bonjour Cafe",
          "type": "cafe",
          "category": "food",
          "lat": 42.3549282,
          "lon": -71.0616918
        },
        {
          "name": "Boloco",
          "type": "fast_food",
          "category": "food",
          "lat": 42.357904,
          "lon": -71.0563719
        },
        {
          "name": "Lily's Bar Pizza Patio",
          "type": "restaurant",
          "category": "food",
          "lat": 42.357445,
          "lon": -71.0540668
        },
        {
          "name": "Salty Dog Seafood Grille & Bar",
          "type": "restaurant",
          "category": "food",
          "lat": 42.3602616,
          "lon": -71.0554773
        },
        {
          "name": "Tea-Do",
          "type": "cafe",
          "category": "food",
          "lat": 42.3510442,
          "lon": -71.0605075
        },
        {
          "name": "Dumpling King",
          "type": "restaurant",
          "category": "food",
          "lat": 42.351589,
          "lon": -71.0609056
        },
        {
          "name": "Great Taste Bakery & Restaurant",
          "type": "restaurant",
          "category": "food",
          "lat": 42.3511876,
          "lon": -71.0601904
        },
        {
          "name": "Subway",
          "type": "fast_food",
          "category": "food",
          "lat": 42.3561885,
          "lon": -71.0609569
        },
        {
          "name": "Tatte",
          "type": "cafe",
          "category": "food",
          "lat": 42.3522068,
          "lon": -71.0647501
        },
        {
          "name": "Sweetgreen",
          "type": "fast_food",
          "category": "food",
          "lat": 42.3563484,
          "lon": -71.0539211
        },
        {
          "name": "Fóumami",
          "type": "fast_food",
          "category": "food",
          "lat": 42.3560534,
          "lon": -71.0536082
        },
        {
          "name": "Taiwan Cafe",
          "type": "restaurant",
          "category": "food",
          "lat": 42.3514688,
          "lon": -71.0602575
        },
        {
          "name": "Gong Cha",
          "type": "cafe",
          "category": "food",
          "lat": 42.3516471,
          "lon": -71.0610302
        },
        {
          "name": "Clay Pot Cafe日旺角",
          "type": "restaurant",
          "category": "food",
          "lat": 42.3505077,
          "lon": -71.0605416
        },
        {
          "name": "Hong Kong Eatery",
          "type": "restaurant",
          "category": "food",
          "lat": 42.3509925,
          "lon": -71.0615343
        },
        {
          "name": "Kung Fu Tea",
          "type": "cafe",
          "category": "food",
          "lat": 42.3505246,
          "lon": -71.0606608
        },
        {
          "name": "Dave's Hot Chicken",
          "type": "fast_food",
          "category": "food",
          "lat": 42.351289,
          "lon": -71.0656504
        },
        {
          "name": "restaurant",
          "type": "restaurant",
          "category": "food",
          "lat": 42.3508801,
          "lon": -71.0601233
        },
        {
          "name": "Boston Pizza",
          "type": "restaurant",
          "category": "food",
          "lat": 42.3510917,
          "lon": -71.0630471
        },
        {
          "name": "restaurant",
          "type": "restaurant",
          "category": "food",
          "lat": 42.3504942,
          "lon": -71.0653138
        },
        {
          "name": "Mass General Brigham Urgent Care",
          "type": "clinic",
          "category": "health",
          "lat": 42.3512963,
          "lon": -71.065861
        },
        {
          "name": "Starbucks",
          "type": "cafe",
          "category": "food",
          "lat": 42.3559113,
          "lon": -71.0527117
        },
        {
          "name": "Eastern Bank",
          "type": "bank",
          "category": "finance",
          "lat": 42.3563008,
          "lon": -71.053283
        },
        {
          "name": "WebsterBank",
          "type": "bank",
          "category": "finance",
          "lat": 42.3555812,
          "lon": -71.0576283
        },
        {
          "name": "Archie's New York Deli",
          "type": "fast_food",
          "category": "food",
          "lat": 42.3551386,
          "lon": -71.0593867
        },
        {
          "name": "Avana Sushi",
          "type": "restaurant",
          "category": "food",
          "lat": 42.3557976,
          "lon": -71.0584867
        },
        {
          "name": "Eastern Bank",
          "type": "bank",
          "category": "finance",
          "lat": 42.3553073,
          "lon": -71.0586183
        },
        {
          "name": "The Merchant Kitchen & Drinks",
          "type": "restaurant",
          "category": "food",
          "lat": 42.3557786,
          "lon": -71.0583534
        },
        {
          "name": "Rockland Trust",
          "type": "bank",
          "category": "finance",
          "lat": 42.355303,
          "lon": -71.0575583
        },
        {
          "name": "Chase",
          "type": "bank",
          "category": "finance",
          "lat": 42.3566937,
          "lon": -71.0564516
        },
        {
          "name": "Bank of America",
          "type": "bank",
          "category": "finance",
          "lat": 42.3552424,
          "lon": -71.0584392
        },
        {
          "name": "ATI Physical Therapy",
          "type": "physiotherapist",
          "category": "health",
          "lat": 42.3552202,
          "lon": -71.05789
        },
        {
          "name": "B.GOOD",
          "type": "fast_food",
          "category": "food",
          "lat": 42.3538998,
          "lon": -71.0580472
        },
        {
          "name": "Taco Bell",
          "type": "fast_food",
          "category": "food",
          "lat": 42.3540052,
          "lon": -71.0582693
        },
        {
          "name": "Starbucks",
          "type": "cafe",
          "category": "food",
          "lat": 42.3550475,
          "lon": -71.0572957
        },
        {
          "name": "Maria's Taqueria",
          "type": "restaurant",
          "category": "food",
          "lat": 42.3514106,
          "lon": -71.0646482
        },
        {
          "name": "Villa Mexico Cafe",
          "type": "restaurant",
          "category": "food",
          "lat": 42.3581381,
          "lon": -71.0545081
        },
        {
          "name": "Maggiano's",
          "type": "restaurant",
          "category": "food",
          "lat": 42.3509739,
          "lon": -71.0686497
        },
        {
          "name": "Wen's Yunnan Noodle & Ramen",
          "type": "restaurant",
          "category": "food",
          "lat": 42.3553043,
          "lon": -71.0629965
        },
        {
          "name": "Pick n’ Bite",
          "type": "convenience",
          "category": "grocery",
          "lat": 42.3519032,
          "lon": -71.0549878
        },
        {
          "name": "Boston Chops",
          "type": "restaurant",
          "category": "food",
          "lat": 42.3550938,
          "lon": -71.0616029
        },
        {
          "name": "Banh Mi Ok",
          "type": "restaurant",
          "category": "food",
          "lat": 42.3576089,
          "lon": -71.0595944
        },
        {
          "name": "Phin Coffee House",
          "type": "cafe",
          "category": "food",
          "lat": 42.3535474,
          "lon": -71.0566398
        },
        {
          "name": "Congress Dental",
          "type": "dentist",
          "category": "health",
          "lat": 42.3540642,
          "lon": -71.0560666
        },
        {
          "name": "First Republic Bank",
          "type": "bank",
          "category": "finance",
          "lat": 42.3542594,
          "lon": -71.0561032
        },
        {
          "name": "Tenderoni's Pizza",
          "type": "fast_food",
          "category": "food",
          "lat": 42.3543056,
          "lon": -71.0554607
        },
        {
          "name": "Dive Bar",
          "type": "restaurant",
          "category": "food",
          "lat": 42.3543625,
          "lon": -71.0555193
        },
        {
          "name": "Gracenote Coffee",
          "type": "cafe",
          "category": "food",
          "lat": 42.3541007,
          "lon": -71.0554715
        },
        {
          "name": "Haley Jane's",
          "type": "fast_food",
          "category": "food",
          "lat": 42.3544468,
          "lon": -71.0559075
        },
        {
          "name": "Ego Convenience",
          "type": "convenience",
          "category": "grocery",
          "lat": 42.3544103,
          "lon": -71.0561509
        },
        {
          "name": "Fuji at HSP",
          "type": "restaurant",
          "category": "food",
          "lat": 42.3543216,
          "lon": -71.055735
        },
        {
          "name": "Hum'Oveh",
          "type": "fast_food",
          "category": "food",
          "lat": 42.3542567,
          "lon": -71.055775
        },
        {
          "name": "Mike & Patty's",
          "type": "fast_food",
          "category": "food",
          "lat": 42.3541246,
          "lon": -71.0556256
        },
        {
          "name": "Guy Fieri's Boston Kitchen + Bar",
          "type": "restaurant",
          "category": "food",
          "lat": 42.351586,
          "lon": -71.0644204
        },
        {
          "name": "New York Pizza",
          "type": "fast_food",
          "category": "food",
          "lat": 42.3514641,
          "lon": -71.0646348
        },
        {
          "name": "Vivi Bubble Tea",
          "type": "cafe",
          "category": "food",
          "lat": 42.3512996,
          "lon": -71.064679
        },
        {
          "name": "UFC Gym",
          "type": "fitness_centre",
          "category": "fitness",
          "lat": 42.3519942,
          "lon": -71.0579831
        },
        {
          "name": "EverybodyFights FiDi",
          "type": "fitness_centre",
          "category": "fitness",
          "lat": 42.3557191,
          "lon": -71.0571382
        },
        {
          "name": "Potbelly",
          "type": "fast_food",
          "category": "food",
          "lat": 42.3558301,
          "lon": -71.0571463
        },
        {
          "name": "Fresh Press Boston",
          "type": "restaurant",
          "category": "food",
          "lat": 42.3559371,
          "lon": -71.0571543
        },
        {
          "name": "Martin's News Shops",
          "type": "convenience",
          "category": "grocery",
          "lat": 42.356175,
          "lon": -71.0571597
        },
        {
          "name": "Kala Thai",
          "type": "restaurant",
          "category": "food",
          "lat": 42.361862,
          "lon": -71.0567916
        },
        {
          "name": "Teazzi",
          "type": "cafe",
          "category": "food",
          "lat": 42.3516572,
          "lon": -71.0613379
        },
        {
          "name": "Corner Cafe Bakery",
          "type": "bakery",
          "category": "grocery",
          "lat": 42.3513847,
          "lon": -71.0610813
        },
        {
          "name": "The Q",
          "type": "restaurant",
          "category": "food",
          "lat": 42.351711,
          "lon": -71.062606
        },
        {
          "name": "The UPS Store",
          "type": "post_office",
          "category": "finance",
          "lat": 42.3521487,
          "lon": -71.0644875
        },
        {
          "name": "RUKA",
          "type": "restaurant",
          "category": "food",
          "lat": 42.3544882,
          "lon": -71.0617394
        },
        {
          "name": "Liuyishou Hotpot Boston",
          "type": "restaurant",
          "category": "food",
          "lat": 42.3510772,
          "lon": -71.0628588
        },
        {
          "name": "Citizens Bank",
          "type": "bank",
          "category": "finance",
          "lat": 42.359172,
          "lon": -71.0572489
        },
        {
          "name": "Santander",
          "type": "bank",
          "category": "finance",
          "lat": 42.3589371,
          "lon": -71.0554789
        },
        {
          "name": "7-Eleven",
          "type": "convenience",
          "category": "grocery",
          "lat": 42.3593856,
          "lon": -71.0600395
        },
        {
          "name": "Bakey",
          "type": "bakery",
          "category": "grocery",
          "lat": 42.3545247,
          "lon": -71.0634501
        },
        {
          "name": "Thinking Cup",
          "type": "cafe",
          "category": "food",
          "lat": 42.354108,
          "lon": -71.0636785
        },
        {
          "name": "Gordon Ramsey Burger",
          "type": "restaurant",
          "category": "food",
          "lat": 42.3619128,
          "lon": -71.0563913
        },
        {
          "name": "convenience",
          "type": "convenience",
          "category": "grocery",
          "lat": 42.3618249,
          "lon": -71.0568491
        },
        {
          "name": "Beacon Hill Books & Cafe",
          "type": "cafe",
          "category": "food",
          "lat": 42.3581991,
          "lon": -71.0703264
        },
        {
          "name": "Tora Ramen",
          "type": "restaurant",
          "category": "food",
          "lat": 42.3508164,
          "lon": -71.0615987
        },
        {
          "name": "CAVA",
          "type": "restaurant",
          "category": "food",
          "lat": 42.3532355,
          "lon": -71.0575185
        },
        {
          "name": "Shoyu Boston",
          "type": "restaurant",
          "category": "food",
          "lat": 42.3517284,
          "lon": -71.0610314
        },
        {
          "name": "Aceituna Grill",
          "type": "restaurant",
          "category": "food",
          "lat": 42.355079,
          "lon": -71.055369
        },
        {
          "name": "Bailey Sage",
          "type": "restaurant",
          "category": "food",
          "lat": 42.3550407,
          "lon": -71.0554772
        },
        {
          "name": "Grana",
          "type": "restaurant",
          "category": "food",
          "lat": 42.3565253,
          "lon": -71.0544805
        },
        {
          "name": "Berkshire Bank",
          "type": "bank",
          "category": "finance",
          "lat": 42.3563387,
          "lon": -71.0563224
        },
        {
          "name": "Winsor Dimsum Cafe",
          "type": "restaurant",
          "category": "food",
          "lat": 42.350993,
          "lon": -71.060539
        },
        {
          "name": "Scholars American Bistro and Cocktail Lounge",
          "type": "restaurant",
          "category": "food",
          "lat": 42.3576575,
          "lon": -71.0589935
        },
        {
          "name": "Cocobeet",
          "type": "restaurant",
          "category": "food",
          "lat": 42.3594566,
          "lon": -71.0590741
        },
        {
          "name": "Primo's",
          "type": "restaurant",
          "category": "food",
          "lat": 42.3592774,
          "lon": -71.0656611
        },
        {
          "name": "Hei La Moon",
          "type": "restaurant",
          "category": "food",
          "lat": 42.3524077,
          "lon": -71.0602069
        },
        {
          "name": "Tatte Bakery & Cafe",
          "type": "cafe",
          "category": "food",
          "lat": 42.355488,
          "lon": -71.0532951
        },
        {
          "name": "Raising Cane's",
          "type": "fast_food",
          "category": "food",
          "lat": 42.3549482,
          "lon": -71.0595221
        },
        {
          "name": "Lotus Test Kitchen",
          "type": "restaurant",
          "category": "food",
          "lat": 42.3538894,
          "lon": -71.060121
        },
        {
          "name": "Bogie's Place",
          "type": "restaurant",
          "category": "food",
          "lat": 42.3551665,
          "lon": -71.0622401
        },
        {
          "name": "Ding Ho Fast Food",
          "type": "restaurant",
          "category": "food",
          "lat": 42.350711,
          "lon": -71.0613515
        },
        {
          "name": "Bao Bao Bakery",
          "type": "restaurant",
          "category": "food",
          "lat": 42.3508084,
          "lon": -71.0613017
        },
        {
          "name": "Eastern Bank",
          "type": "bank",
          "category": "finance",
          "lat": 42.3556118,
          "lon": -71.0569428
        },
        {
          "name": "Visiting Angels Senior Home Care Boston",
          "type": "yes",
          "category": "health",
          "lat": 42.359466,
          "lon": -71.0583407
        },
        {
          "name": "Master Wok",
          "type": "fast_food",
          "category": "food",
          "lat": 42.3518823,
          "lon": -71.0554119
        },
        {
          "name": "Starbucks",
          "type": "cafe",
          "category": "food",
          "lat": 42.3591433,
          "lon": -71.0556291
        },
        {
          "name": "Asian Garden",
          "type": "restaurant",
          "category": "food",
          "lat": 42.3519131,
          "lon": -71.0610668
        },
        {
          "name": "163 Vietnamese Sandwich",
          "type": "restaurant",
          "category": "food",
          "lat": 42.3513282,
          "lon": -71.0611067
        },
        {
          "name": "French Quarter",
          "type": "restaurant",
          "category": "food",
          "lat": 42.3538949,
          "lon": -71.0623015
        },
        {
          "name": "Ten Second Yunnan Rice Noodles",
          "type": "restaurant",
          "category": "food",
          "lat": 42.3513926,
          "lon": -71.0602225
        },
        {
          "name": "Bank of America",
          "type": "bank",
          "category": "finance",
          "lat": 42.3533058,
          "lon": -71.0565734
        },
        {
          "name": "Firebrand Cannabis",
          "type": "alternative",
          "category": "health",
          "lat": 42.3506761,
          "lon": -71.0566995
        },
        {
          "name": "Al's State Street Cafe",
          "type": "restaurant",
          "category": "food",
          "lat": 42.3592989,
          "lon": -71.0548718
        },
        {
          "name": "美心餅家 Mei Sum Bakery",
          "type": "bakery",
          "category": "grocery",
          "lat": 42.351564,
          "lon": -71.0619633
        },
        {
          "name": "5 Spices House 五味七品棲",
          "type": "restaurant",
          "category": "food",
          "lat": 42.3514325,
          "lon": -71.0603959
        },
        {
          "name": "Taiwan Bakery 聚樂惜悟",
          "type": "bakery",
          "category": "grocery",
          "lat": 42.3514441,
          "lon": -71.0605245
        },
        {
          "name": "Morgan Mako APRN FNP-C",
          "type": "doctors",
          "category": "health",
          "lat": 42.3580751,
          "lon": -71.0552551
        },
        {
          "name": "Bistro du Midi",
          "type": "restaurant",
          "category": "food",
          "lat": 42.3519916,
          "lon": -71.0694161
        },
        {
          "name": "bb.q Chicken Boylston",
          "type": "restaurant",
          "category": "food",
          "lat": 42.3522299,
          "lon": -71.0643294
        },
        {
          "name": "Regina Pizzeria",
          "type": "fast_food",
          "category": "food",
          "lat": 42.3518233,
          "lon": -71.0554568
        },
        {
          "name": "B/SPOKE",
          "type": "fitness_centre",
          "category": "fitness",
          "lat": 42.3549105,
          "lon": -71.0565616
        },
        {
          "name": "Viva Burrito",
          "type": "restaurant",
          "category": "food",
          "lat": 42.3569918,
          "lon": -71.05348
        },
        {
          "name": "Fuful Bakery",
          "type": "bakery",
          "category": "grocery",
          "lat": 42.3569425,
          "lon": -71.053606
        },
        {
          "name": "The Hummus Shop",
          "type": "restaurant",
          "category": "food",
          "lat": 42.3573127,
          "lon": -71.0696965
        },
        {
          "name": "Kured",
          "type": "fast_food",
          "category": "food",
          "lat": 42.3584848,
          "lon": -71.070485
        },
        {
          "name": "Boston Public Garden",
          "type": "park",
          "category": "park",
          "lat": 42.3540568,
          "lon": -71.069998
        },
        {
          "name": "The Advent School",
          "type": "school",
          "category": "education",
          "lat": 42.3608055,
          "lon": -71.0698513
        },
        {
          "name": "Shriners Hospitals for Children - Boston",
          "type": "hospital",
          "category": "health",
          "lat": 42.3630911,
          "lon": -71.0664345
        },
        {
          "name": "Angell Memorial Square",
          "type": "park",
          "category": "park",
          "lat": 42.3570887,
          "lon": -71.0560744
        },
        {
          "name": "Jenny Plaza",
          "type": "park",
          "category": "park",
          "lat": 42.3586838,
          "lon": -71.0532838
        },
        {
          "name": "Broad St. Park",
          "type": "park",
          "category": "park",
          "lat": 42.3585745,
          "lon": -71.0546418
        },
        {
          "name": "Cardinal Cushing Memorial Park",
          "type": "park",
          "category": "park",
          "lat": 42.3615089,
          "lon": -71.0621623
        },
        {
          "name": "Ashburton Park",
          "type": "park",
          "category": "park",
          "lat": 42.3590283,
          "lon": -71.0632558
        },
        {
          "name": "Norman B. Leventhal Park",
          "type": "park",
          "category": "park",
          "lat": 42.3562807,
          "lon": -71.0555948
        },
        {
          "name": "Curley Memorial Plaza",
          "type": "park",
          "category": "park",
          "lat": 42.360563,
          "lon": -71.057007
        },
        {
          "name": "Reggie Wong Memorial Park",
          "type": "park",
          "category": "park",
          "lat": 42.3495447,
          "lon": -71.0587469
        },
        {
          "name": "Old City Hall Grounds",
          "type": "park",
          "category": "park",
          "lat": 42.3579088,
          "lon": -71.0595412
        },
        {
          "name": "Rose Kennedy Greenway",
          "type": "park",
          "category": "park",
          "lat": 42.3544313,
          "lon": -71.0527469
        },
        {
          "name": "Rose Kennedy Greenway",
          "type": "park",
          "category": "park",
          "lat": 42.3535621,
          "lon": -71.0545986
        },
        {
          "name": "park",
          "type": "park",
          "category": "park",
          "lat": 42.3528732,
          "lon": -71.0571817
        },
        {
          "name": "Oxford Place Playground",
          "type": "park",
          "category": "park",
          "lat": 42.3516629,
          "lon": -71.0605489
        },
        {
          "name": "Lincoln Square",
          "type": "park",
          "category": "park",
          "lat": 42.3516013,
          "lon": -71.0680119
        },
        {
          "name": "Liberty Square",
          "type": "park",
          "category": "park",
          "lat": 42.3579095,
          "lon": -71.055285
        },
        {
          "name": "Massachusetts General Hospital",
          "type": "hospital",
          "category": "health",
          "lat": 42.3627276,
          "lon": -71.0688403
        },
        {
          "name": "Louisburg Square",
          "type": "park",
          "category": "park",
          "lat": 42.3584514,
          "lon": -71.0687664
        },
        {
          "name": "Harvard Vanguard",
          "type": "doctors",
          "category": "health",
          "lat": 42.3574612,
          "lon": -71.054298
        },
        {
          "name": "Temple Street Park",
          "type": "park",
          "category": "park",
          "lat": 42.3600416,
          "lon": -71.0634791
        },
        {
          "name": "Winthrop Square",
          "type": "park",
          "category": "park",
          "lat": 42.3548062,
          "lon": -71.0577421
        },
        {
          "name": "Seybolt Park",
          "type": "park",
          "category": "park",
          "lat": 42.3502548,
          "lon": -71.0638521
        },
        {
          "name": "School Street Mall",
          "type": "park",
          "category": "park",
          "lat": 42.3572967,
          "lon": -71.0585865
        },
        {
          "name": "Leather District Park",
          "type": "park",
          "category": "park",
          "lat": 42.35233,
          "lon": -71.0573073
        },
        {
          "name": "Tufts Medical Center",
          "type": "hospital",
          "category": "health",
          "lat": 42.3495134,
          "lon": -71.063564
        },
        {
          "name": "Carmen Park",
          "type": "park",
          "category": "park",
          "lat": 42.3610591,
          "lon": -71.0572198
        },
        {
          "name": "Mary Soo Hoo Park",
          "type": "park",
          "category": "park",
          "lat": 42.3514401,
          "lon": -71.0592484
        },
        {
          "name": "hospital",
          "type": "hospital",
          "category": "health",
          "lat": 42.3630637,
          "lon": -71.0664435
        },
        {
          "name": "Auntie Kay & Uncle Frank Chin Park",
          "type": "park",
          "category": "park",
          "lat": 42.3519954,
          "lon": -71.0589265
        },
        {
          "name": "Grain Exchange Plaza",
          "type": "park",
          "category": "park",
          "lat": 42.358428,
          "lon": -71.0529107
        }
      ]
    },
    {
      "stop": {
        "name": "Back Bay",
        "line": "Orange Line",
        "lat": 42.3474,
        "lon": -71.0757,
        "radius_m": 800,
        "walk_minutes": 10
      },
      "counts": {
        "library": 4,
        "education": 16,
        "finance": 25,
        "fitness": 14,
        "food": 165,
        "grocery": 11,
        "health": 43,
        "park": 33,
        "other": 2
      },
      "total": 313,
      "amenities": [
        {
          "name": "Lufkin Library",
          "type": "library",
          "category": "library",
          "lat": 42.3462039,
          "lon": -71.0702198
        },
        {
          "name": "Boston Renaissance Charter School Media Center",
          "type": "library",
          "category": "library",
          "lat": 42.3501823,
          "lon": -71.0690611
        },
        {
          "name": "Snowden International School Library",
          "type": "library",
          "category": "library",
          "lat": 42.3505737,
          "lon": -71.0779829
        },
        {
          "name": "The Learning Project Elementary School",
          "type": "school",
          "category": "education",
          "lat": 42.3535373,
          "lon": -71.0770897
        },
        {
          "name": "Josiah Quincy Upper School",
          "type": "school",
          "category": "education",
          "lat": 42.3483857,
          "lon": -71.0688702
        },
        {
          "name": "Newman School",
          "type": "school",
          "category": "education",
          "lat": 42.3521992,
          "lon": -71.0819614
        },
        {
          "name": "The Kingsley School",
          "type": "school",
          "category": "education",
          "lat": 42.3503117,
          "lon": -71.0823043
        },
        {
          "name": "The UPS Store",
          "type": "post_office",
          "category": "finance",
          "lat": 42.3445646,
          "lon": -71.0763875
        },
        {
          "name": "Boston Center for Adult Education",
          "type": "school",
          "category": "education",
          "lat": 42.3491921,
          "lon": -71.0693496
        },
        {
          "name": "School of Fashion Design",
          "type": "school",
          "category": "education",
          "lat": 42.3509061,
          "lon": -71.0768656
        },
        {
          "name": "United States Post Office",
          "type": "post_office",
          "category": "finance",
          "lat": 42.3466957,
          "lon": -71.082868
        },
        {
          "name": "Boston Renaissance Charter School",
          "type": "school",
          "category": "education",
          "lat": 42.3502,
          "lon": -71.0691
        },
        {
          "name": "YWCA",
          "type": "fitness_centre",
          "category": "fitness",
          "lat": 42.3484886,
          "lon": -71.0743051
        },
        {
          "name": "FiRE + iCE",
          "type": "restaurant",
          "category": "food",
          "lat": 42.3506432,
          "lon": -71.0725379
        },
        {
          "name": "Tremont 647",
          "type": "restaurant",
          "category": "food",
          "lat": 42.3422009,
          "lon": -71.075363
        },
        {
          "name": "Star Market",
          "type": "supermarket",
          "category": "grocery",
          "lat": 42.3474434,
          "lon": -71.0796721
        },
        {
          "name": "Trader Joe's",
          "type": "supermarket",
          "category": "grocery",
          "lat": 42.3484447,
          "lon": -71.0841008
        },
        {
          "name": "Eva",
          "type": "restaurant",
          "category": "food",
          "lat": 42.3492887,
          "lon": -71.0843668
        },
        {
          "name": "Starbucks",
          "type": "cafe",
          "category": "food",
          "lat": 42.3485218,
          "lon": -71.0762884
        },
        {
          "name": "South End Buttery",
          "type": "cafe",
          "category": "food",
          "lat": 42.3421306,
          "lon": -71.0704032
        },
        {
          "name": "McCormick & Schmick's",
          "type": "restaurant",
          "category": "food",
          "lat": 42.3506069,
          "lon": -71.0695882
        },
        {
          "name": "M&T Bank",
          "type": "bank",
          "category": "finance",
          "lat": 42.3515568,
          "lon": -71.0726978
        },
        {
          "name": "Citizens Bank",
          "type": "bank",
          "category": "finance",
          "lat": 42.3511567,
          "lon": -71.0727532
        },
        {
          "name": "The Upper Crust",
          "type": "restaurant",
          "category": "food",
          "lat": 42.341522,
          "lon": -71.0765945
        },
        {
          "name": "Picco",
          "type": "restaurant",
          "category": "food",
          "lat": 42.3448813,
          "lon": -71.070484
        },
        {
          "name": "The Salty Pig",
          "type": "restaurant",
          "category": "food",
          "lat": 42.3469394,
          "lon": -71.0761022
        },
        {
          "name": "Select Oyster Bar",
          "type": "restaurant",
          "category": "food",
          "lat": 42.3486374,
          "lon": -71.0840371
        },
        {
          "name": "Thornton's Restaurant",
          "type": "restaurant",
          "category": "food",
          "lat": 42.3449757,
          "lon": -71.0818503
        },
        {
          "name": "Healthworks",
          "type": "fitness_centre",
          "category": "fitness",
          "lat": 42.3485758,
          "lon": -71.076148
        },
        {
          "name": "Charlie's Sandwich Shoppe",
          "type": "cafe",
          "category": "food",
          "lat": 42.3440917,
          "lon": -71.0777133
        },
        {
          "name": "Deluca's Market",
          "type": "convenience",
          "category": "grocery",
          "lat": 42.3497642,
          "lon": -71.0824595
        },
        {
          "name": "Phoreal",
          "type": "restaurant",
          "category": "food",
          "lat": 42.3493685,
          "lon": -71.0840537
        },
        {
          "name": "The Capital Grille",
          "type": "restaurant",
          "category": "food",
          "lat": 42.347762,
          "lon": -71.0852028
        },
        {
          "name": "Abe & Louie's",
          "type": "restaurant",
          "category": "food",
          "lat": 42.3491548,
          "lon": -71.0815528
        },
        {
          "name": "Mistral",
          "type": "restaurant",
          "category": "food",
          "lat": 42.348281,
          "lon": -71.0727007
        },
        {
          "name": "Gregorios",
          "type": "restaurant",
          "category": "food",
          "lat": 42.3441327,
          "lon": -71.0774061
        },
        {
          "name": "Banyan",
          "type": "restaurant",
          "category": "food",
          "lat": 42.3440669,
          "lon": -71.0717382
        },
        {
          "name": "Fogo de Chão",
          "type": "restaurant",
          "category": "food",
          "lat": 42.3488075,
          "lon": -71.0770784
        },
        {
          "name": "Thinking Cup",
          "type": "cafe",
          "category": "food",
          "lat": 42.3518284,
          "lon": -71.0749192
        },
        {
          "name": "Stephany's on Newbury",
          "type": "restaurant",
          "category": "food",
          "lat": 42.350176,
          "lon": -71.079582
        },
        {
          "name": "Sorellina",
          "type": "restaurant",
          "category": "food",
          "lat": 42.3488324,
          "lon": -71.0779434
        },
        {
          "name": "Atlantic Fish",
          "type": "restaurant",
          "category": "food",
          "lat": 42.3492931,
          "lon": -71.0811812
        },
        {
          "name": "ETHIC Wealth Bank",
          "type": "bank",
          "category": "finance",
          "lat": 42.3505041,
          "lon": -71.0766634
        },
        {
          "name": "Citizens Bank",
          "type": "bank",
          "category": "finance",
          "lat": 42.3503633,
          "lon": -71.0772267
        },
        {
          "name": "CVS Pharmacy",
          "type": "pharmacy",
          "category": "health",
          "lat": 42.3504528,
          "lon": -71.0769076
        },
        {
          "name": "Santander",
          "type": "bank",
          "category": "finance",
          "lat": 42.3505523,
          "lon": -71.07654
        },
        {
          "name": "Starbucks",
          "type": "cafe",
          "category": "food",
          "lat": 42.3460539,
          "lon": -71.081695
        },
        {
          "name": "Walgreens",
          "type": "pharmacy",
          "category": "health",
          "lat": 42.3488862,
          "lon": -71.0827823
        },
        {
          "name": "Wendy's",
          "type": "fast_food",
          "category": "food",
          "lat": 42.3507027,
          "lon": -71.0759936
        },
        {
          "name": "Flour Bakery + Cafe",
          "type": "restaurant",
          "category": "food",
          "lat": 42.3483384,
          "lon": -71.0737162
        },
        {
          "name": "Greystone Cafe",
          "type": "cafe",
          "category": "food",
          "lat": 42.3452434,
          "lon": -71.0747204
        },
        {
          "name": "Clery's",
          "type": "restaurant",
          "category": "food",
          "lat": 42.3461504,
          "lon": -71.0751841
        },
        {
          "name": "United States Post Office",
          "type": "post_office",
          "category": "finance",
          "lat": 42.3486262,
          "lon": -71.0739356
        },
        {
          "name": "Mike & Patty's",
          "type": "restaurant",
          "category": "food",
          "lat": 42.3485529,
          "lon": -71.0679338
        },
        {
          "name": "SOL Mexican Cocina",
          "type": "restaurant",
          "category": "food",
          "lat": 42.3464707,
          "lon": -71.0800292
        },
        {
          "name": "Champions",
          "type": "restaurant",
          "category": "food",
          "lat": 42.3470414,
          "lon": -71.0790852
        },
        {
          "name": "Starbucks",
          "type": "cafe",
          "category": "food",
          "lat": 42.3471604,
          "lon": -71.0790239
        },
        {
          "name": "The Cheesecake Factory",
          "type": "restaurant",
          "category": "food",
          "lat": 42.3458747,
          "lon": -71.08204
        },
        {
          "name": "California Pizza Kitchen",
          "type": "restaurant",
          "category": "food",
          "lat": 42.3473792,
          "lon": -71.0802008
        },
        {
          "name": "Norman B. Leventhal Map Center",
          "type": "library",
          "category": "library",
          "lat": 42.3494397,
          "lon": -71.0781642
        },
        {
          "name": "Newsfeed Cafe",
          "type": "cafe",
          "category": "food",
          "lat": 42.34924,
          "lon": -71.0790061
        },
        {
          "name": "Chipotle",
          "type": "fast_food",
          "category": "food",
          "lat": 42.3506803,
          "lon": -71.0760817
        },
        {
          "name": "Harvard Vanguard Medical Associates",
          "type": "clinic",
          "category": "health",
          "lat": 42.347997,
          "lon": -71.0760279
        },
        {
          "name": "Beehive",
          "type": "restaurant",
          "category": "food",
          "lat": 42.3443729,
          "lon": -71.0713814
        },
        {
          "name": "Grill 23",
          "type": "restaurant",
          "category": "food",
          "lat": 42.3494568,
          "lon": -71.0719203
        },
        {
          "name": "Summer Shack",
          "type": "restaurant",
          "category": "food",
          "lat": 42.3469332,
          "lon": -71.0853127
        },
        {
          "name": "Brownstone",
          "type": "restaurant",
          "category": "food",
          "lat": 42.3464338,
          "lon": -71.0753432
        },
        {
          "name": "The Parish Cafe",
          "type": "restaurant",
          "category": "food",
          "lat": 42.3518547,
          "lon": -71.0716446
        },
        {
          "name": "Wen's Yunnan Noodle & Ramen",
          "type": "restaurant",
          "category": "food",
          "lat": 42.3497387,
          "lon": -71.0826974
        },
        {
          "name": "Aquitaine",
          "type": "restaurant",
          "category": "food",
          "lat": 42.3437826,
          "lon": -71.0723582
        },
        {
          "name": "Masa",
          "type": "restaurant",
          "category": "food",
          "lat": 42.3468371,
          "lon": -71.0691398
        },
        {
          "name": "Earls",
          "type": "restaurant",
          "category": "food",
          "lat": 42.3479265,
          "lon": -71.0821967
        },
        {
          "name": "GRECO",
          "type": "fast_food",
          "category": "food",
          "lat": 42.3500136,
          "lon": -71.0816701
        },
        {
          "name": "Joe’s American Bar & Grill",
          "type": "restaurant",
          "category": "food",
          "lat": 42.3505427,
          "lon": -71.0797493
        },
        {
          "name": "Café Susu by Suitsupply",
          "type": "cafe",
          "category": "food",
          "lat": 42.3494538,
          "lon": -71.0822575
        },
        {
          "name": "Luke's Lobster Back Bay",
          "type": "restaurant",
          "category": "food",
          "lat": 42.3487872,
          "lon": -71.07932
        },
        {
          "name": "Finagle A Bagel",
          "type": "fast_food",
          "category": "food",
          "lat": 42.3508034,
          "lon": -71.0756278
        },
        {
          "name": "Pavement Coffeehouse",
          "type": "cafe",
          "category": "food",
          "lat": 42.3488864,
          "lon": -71.0844124
        },
        {
          "name": "7-Eleven",
          "type": "convenience",
          "category": "grocery",
          "lat": 42.3504806,
          "lon": -71.0773196
        },
        {
          "name": "Georgetown Cupcake",
          "type": "bakery",
          "category": "grocery",
          "lat": 42.351854,
          "lon": -71.0748301
        },
        {
          "name": "Tatte Bakery & Cafe",
          "type": "cafe",
          "category": "food",
          "lat": 42.351799,
          "lon": -71.0718774
        },
        {
          "name": "Nero Express",
          "type": "cafe",
          "category": "food",
          "lat": 42.3514714,
          "lon": -71.0729805
        },
        {
          "name": "Bank of America",
          "type": "bank",
          "category": "finance",
          "lat": 42.3509985,
          "lon": -71.0731961
        },
        {
          "name": "Jaho Coffee Roaster & Wine Bar",
          "type": "cafe",
          "category": "food",
          "lat": 42.3467494,
          "lon": -71.0796207
        },
        {
          "name": "Invictus",
          "type": "fitness_centre",
          "category": "fitness",
          "lat": 42.3511124,
          "lon": -71.0711073
        },
        {
          "name": "The Oyster Club @ The Heritage",
          "type": "restaurant",
          "category": "food",
          "lat": 42.3514729,
          "lon": -71.0701153
        },
        {
          "name": "Chase",
          "type": "bank",
          "category": "finance",
          "lat": 42.3485192,
          "lon": -71.0824663
        },
        {
          "name": "Bank of America",
          "type": "bank",
          "category": "finance",
          "lat": 42.3497582,
          "lon": -71.079441
        },
        {
          "name": "Kingsley Montessori School",
          "type": "school",
          "category": "education",
          "lat": 42.3505808,
          "lon": -71.0798233
        },
        {
          "name": "Blue Bottle Coffee",
          "type": "cafe",
          "category": "food",
          "lat": 42.3508102,
          "lon": -71.0787779
        },
        {
          "name": "Dental Arts of Boston",
          "type": "dentist",
          "category": "health",
          "lat": 42.3540559,
          "lon": -71.0735259
        },
        {
          "name": "Starbucks",
          "type": "cafe",
          "category": "food",
          "lat": 42.3493339,
          "lon": -71.0810065
        },
        {
          "name": "Clover Food Lab",
          "type": "restaurant",
          "category": "food",
          "lat": 42.3506128,
          "lon": -71.0763406
        },
        {
          "name": "Dig",
          "type": "fast_food",
          "category": "food",
          "lat": 42.3506571,
          "lon": -71.0761723
        },
        {
          "name": "TD Bank",
          "type": "bank",
          "category": "finance",
          "lat": 42.3508328,
          "lon": -71.0754903
        },
        {
          "name": "Yamato II",
          "type": "restaurant",
          "category": "food",
          "lat": 42.3507152,
          "lon": -71.0758934
        },
        {
          "name": "Saltie Girl",
          "type": "restaurant",
          "category": "food",
          "lat": 42.3511586,
          "lon": -71.0776455
        },
        {
          "name": "CAVA",
          "type": "restaurant",
          "category": "food",
          "lat": 42.3499229,
          "lon": -71.0788193
        },
        {
          "name": "Sweetgreen",
          "type": "fast_food",
          "category": "food",
          "lat": 42.3499713,
          "lon": -71.0786511
        },
        {
          "name": "Shake Shack",
          "type": "fast_food",
          "category": "food",
          "lat": 42.3496386,
          "lon": -71.0815943
        },
        {
          "name": "Dirty Water Dough Co.",
          "type": "restaurant",
          "category": "food",
          "lat": 42.3497522,
          "lon": -71.0810802
        },
        {
          "name": "Lolita",
          "type": "restaurant",
          "category": "food",
          "lat": 42.3506853,
          "lon": -71.0774037
        },
        {
          "name": "Candid",
          "type": "dentist",
          "category": "health",
          "lat": 42.3514521,
          "lon": -71.07656
        },
        {
          "name": "Jonquils Cafe & Bakery",
          "type": "bakery",
          "category": "grocery",
          "lat": 42.3513777,
          "lon": -71.0766179
        },
        {
          "name": "Boston Sports Club",
          "type": "fitness_centre",
          "category": "fitness",
          "lat": 42.3511016,
          "lon": -71.0747043
        },
        {
          "name": "WebsterBank",
          "type": "bank",
          "category": "finance",
          "lat": 42.3512606,
          "lon": -71.074136
        },
        {
          "name": "Derosa Clinic",
          "type": "clinic",
          "category": "health",
          "lat": 42.3518782,
          "lon": -71.0750274
        },
        {
          "name": "Revival Cafe + Kitchen",
          "type": "cafe",
          "category": "food",
          "lat": 42.3517325,
          "lon": -71.0754334
        },
        {
          "name": "L.A. Burdick Chocolates",
          "type": "cafe",
          "category": "food",
          "lat": 42.3511098,
          "lon": -71.0755741
        },
        {
          "name": "Thai Basil Restaurant",
          "type": "restaurant",
          "category": "food",
          "lat": 42.3509847,
          "lon": -71.076712
        },
        {
          "name": "CorePower Yoga",
          "type": "fitness_centre",
          "category": "fitness",
          "lat": 42.3517704,
          "lon": -71.0719944
        },
        {
          "name": "Beatnic",
          "type": "fast_food",
          "category": "food",
          "lat": 42.3516736,
          "lon": -71.0723333
        },
        {
          "name": "Max Brenner",
          "type": "cafe",
          "category": "food",
          "lat": 42.3493887,
          "lon": -71.0808179
        },
        {
          "name": "Krasi",
          "type": "restaurant",
          "category": "food",
          "lat": 42.3486892,
          "lon": -71.0840674
        },